id;nom;prenom;cin;adress;latitude;longitude
1;Ihabritane;faical;1234;sale;33.981331; -6.865048
2;Boumarouane;zakaria;2345;rabat;33.985041; -6.860209
3;Lfour;faical;4567;rabat;33.986785; -6.866818
4;Achraf;achraf;2222;Mohammedia;33.691739; -7.389000
5;Ismael;Ismael;3333;Casablanca;33.567347; -7.627866
6;Hamza;hamza;5555;Rabat;33.984075; -6.875265
7;Abdesamad;abdesamad;6666;Temara;33.955424; -6.874192